[
  {
    "id": "001",
    "district": [
      {
        "id": "A",
        "name": "Hollywood"
      }
    ],
    "name": "àMaurice",
    "favorite": true,
    "location": {
      "street": "14463 Woodinville Redmond Road NE",
      "city": "Woodinville",
      "state": "WA",
      "postcode": "98072"
    },
    "phone": "425-466-2027",
    "logo_path": "https://www.amaurice.com/assets/images/logo.png",
    "description": "Estate and Walla Walla, Yakima, and Colombia grown grapes. Practices sustainable viticulture. This is one of my favorites!",
    "website": "www.amaurice.com",
    "web_link": "https://www.amaurice.com/"
  },
  {
    "id": "002",
    "district": [
      {
        "id": "A",
        "name": "Hollywood"
      }
    ],
    "name": "Adams Bench Winery",
    "favorite": true,
    "location": {
      "street": "13590 NE Village Square Dr Suite 1040",
      "city": "Woodinville",
      "state": "WA",
      "postcode": "98072"
    },
    "phone": "425-408-1969",
    "logo_path": "https://www.adamsbench.com/wp-content/themes/massive-dynamic-child/img/logo.png",
    "description": "Produces ~1,000 cases/year and focuses on Cabernet Sauvignon and Cabernet blends. It's a super small husband_and_wife duo and are a good fit for serious red wine lovers who want to find the places no one is talking about.",
    "website": "adamsbench.com",
    "web_link": "http://adamsbench.com/"
  },
  {
    "id": "003",
    "district": [
      {
        "id": "A",
        "name": "Hollywood"
      }
    ],
    "name": "Pepper Bridge/Amavi Cellars",
    "favorite": true,
    "location": {
      "street": "14810 NE 145th St A3, Woodinville",
      "city": "Woodinville",
      "state": "WA",
      "postcode": "98072"
    },
    "phone": "425-483-7026",
    "logo_path": "https://images.squarespace-cdn.com/content/v1/5ee5f4a9d5b9bf46e49d8163/1592514177889-LVDZCWKHF3RJVP4A2KWB/amavi-name.png?format=2500w",
    "description": "Amavi was one of our favorites in Walla Walla and they have a tasting room in Woodinville with their sister winery, Pepper Bridge.",
    "website": "www.pepperbridge.com",
    "web_link": "https://www.pepperbridge.com/"
  },
  {
    "id": "004",
    "district": [
      {
        "id": "A",
        "name": "Hollywood"
      }
    ],
    "name": "JM Cellars",
    "favorite": true,
    "location": {
      "street": "14404 137th Pl NE",
      "city": "Woodinville",
      "state": "WA",
      "postcode": "98072"
    },
    "phone": "425-485-6508",
    "logo_path": "https://kazzit.com/custom/domain_1/image_files/sitemgr_photo_123370.jpg",
    "description": "This was recommended by a friend & Wine Folly, a PNW wine genius. It's small batch, family_owned, and has beautiful grounds with a secluded forest trail. I love this place.",
    "website": "jmcellars.com",
    "web_link": "https://www.jmcellars.com/"
  },
  {
    "id": "005",
    "district": [
      {
        "id": "A",
        "name": "Hollywood"
      },
      {
        "id": "B",
        "name": "Warehouse"
      }
    ],
    "name": "Obelisco Estate",
    "favorite": true,
    "location": {
      "street": "14525 148th Ave NE",
      "city": "Woodinville",
      "state": "WA",
      "postcode": "98072"
    },
    "phone": "425-892-2610",
    "logo_path": "http://obelisco.com/wp-content/uploads/2015/10/obelisco-estate-logo-1240x698.png",
    "description": "Recommended by Eater & has won awards for wines. Two locations, one in Hollywood & one in Warehouse District. They have a funky arthouse vibe and beautiful wines.",
    "website": "www.obelisco.com",
    "web_link": "http://obelisco.com/"
  },
  {
    "id": "006",
    "district": [
      {
        "id": "A",
        "name": "Hollywood"
      }
    ],
    "name": "Trust Cellars",
    "favorite": true,
    "location": {
      "street": "14469 Redmond _ Woodinville Rd NE",
      "city": "Woodinville",
      "state": "WA",
      "postcode": "98072"
    },
    "phone": "425-398-9300",
    "logo_path": "https://trustcellars.com/images/76.jpg",
    "description": "A Walla Walla_based winery making beautiful reds. I usually love every wine I try here.",
    "website": "www.trustcellars.com",
    "web_link": "href='https://www.trustcellars.com/'"
  },
  {
    "id": "007",
    "district": [
      {
        "id": "A",
        "name": "Hollywood"
      }
    ],
    "name": "Market Vineyards",
    "favorite": true,
    "location": {
      "street": "14810 NE 145th St Ste A_2",
      "city": "Woodinville",
      "state": "WA",
      "postcode": "98072"
    },
    "phone": "425-486-1171",
    "logo_path": "https://sagemoorvineyards.com/wp-content/uploads/2015/10/market-vineyards-winery-logo.png",
    "description": "The winery takes great pride in offering remarkable wines created with hand_picked fruit sourced from premier vineyards in the Columbia Valley and Red Mountain growing regions. Their attention to detail and premium quality is noticed not only in the fruit chosen, but also in the artistic abilities in the cellar.",
    "website": "www.marketvineyards.com",
    "web_link": "https://www.marketvineyards.com/"
  },
  {
    "id": "008",
    "district": [
      {
        "id": "A",
        "name": "Hollywood"
      }
    ],
    "name": "Long Shadows",
    "favorite": true,
    "location": {
      "street": "14450 Redmond _ Woodinville Rd NE",
      "city": "Woodinville",
      "state": "WA",
      "postcode": "98072"
    },
    "phone": "425-408-1608",
    "logo_path": "https://images.squarespace-cdn.com/content/v1/58b6fe75ff7c50b1e73ebfe0/1553620657548-2SYRTYKIAFV7SFNSTQFH/longshadows_logo_website-resize.png",
    "description": "A waiter at The Herb Farm recommended this place to me and it's incredible. They bring winemakers from all over the world under one roof to make well_balanced and yummy wines. Definitely make sure to stop here.",
    "website": "www.longshadows.com",
    "web_link": "https://longshadows.com/"
  },
  {
    "id": "009",
    "district": [
      {
        "id": "A",
        "name": "Hollywood"
      }
    ],
    "name": "DeLille Cellars Carriage House",
    "favorite": false,
    "location": {
      "street": "14208 Redmond _ Woodinville Rd NE",
      "city": "Woodinville",
      "state": "WA",
      "postcode": "98052"
    },
    "phone": "425-466-0213",
    "logo_path": "https://www.winemonth.com/wp-content/uploads/2018/08/delille-cellars-logo.png",
    "description": "Knowns for Bordeaux blends. Is a portfolio company of Bacchus Capital Management, an investment firm providing strategic capital and making equity investments in United States wineries and wine businesses. ",
    "website": "www.chateaulill.com",
    "web_link": "https://chateaulill.com/"
  },
  {
    "id": "010",
    "district": [
      {
        "id": "A",
        "name": "Hollywood"
      },
      {
        "id": "B",
        "name": "Warehouse"
      }
    ],
    "name": "Gorman Winery",
    "favorite": false,
    "location": {
      "street": "14505 148th Ave NE",
      "city": "Woodinville",
      "state": "WA",
      "postcode": "98072"
    },
    "phone": "206-351-0719",
    "logo_path": "https://kazzit.com/custom/domain_1/image_files/sitemgr_photo_121449.jpg",
    "description": "Produces under 8,000 cases a year and focuses primarily on Red Mountain Cabernet Sauvignon and Syrah. I think there wines are just ok, but the Hollywood District location has a full restaurant and the meatballs / pizza are pretty good.",
    "website": "www.gormanwinery.com",
    "web_link": "http://www.gormanwinery.com/"
  },
  {
    "id": "011",
    "district": [
      {
        "id": "A",
        "name": "Hollywood"
      }
    ],
    "name": "Novelty Hill Januik Winery",
    "favorite": false,
    "location": {
      "street": "14710 Redmond _ Woodinville Rd NE",
      "city": "Woodinville",
      "state": "WA",
      "postcode": "98072"
    },
    "phone": "425-481-5502",
    "logo_path": "https://www.noveltyhilljanuik.com/wp-content/uploads/2018/09/logo.png",
    "description": "This is actually two wineries in one. Both Novelty Hill and Januik use the same lead winemaker. They have beautiful grounds and gardens, plus pizza for purchase, which make them a place I often find myself at during group outings. However, I find their staff to always be a bit cold and I don't think the wines warrant the lack of warmth.",
    "website": "www.noveltyhilljanuik.com",
    "web_link": "https://www.noveltyhilljanuik.com/"
  },
  {
    "id": "012",
    "district": [
      {
        "id": "A",
        "name": "Hollywood"
      }
    ],
    "name": "Ryan Patrick Wines",
    "favorite": false,
    "location": {
      "street": "14450 Redmond _ Woodinville Rd NE",
      "city": "Woodinville",
      "state": "WA",
      "postcode": "98072"
    },
    "phone": "425-949-7972",
    "logo_path": "https://ryanpatrickwines.com/wp-content/uploads/2015/08/rp_ibu_n.png",
    "description": "Intuitive winemaking is the art of letting the fruit speak for itself. Its minimalist intervention combined with consistency of style. That’s the heart of the Ryan Patrick promise: artisanal winemaking where the grape is at the center. The wine is also made artisanally in small batches.",
    "website": "ryanpatrickwines.com",
    "web_link": "https://ryanpatrickwines.com/"
  },
  {
    "id": "013",
    "district": [
      {
        "id": "A",
        "name": "Hollywood"
      }
    ],
    "name": "Darby Winery",
    "favorite": false,
    "location": {
      "street": "14450 Redmond - Woodinville Rd NE",
      "city": "Woodinville",
      "state": "WA",
      "postcode": "98072"
    },
    "phone": "425-233-7879",
    "logo_path": "https://uploads.poachedjobs.com/wp-content/uploads/2020/07/28152055/Picture1-300x300.png",
    "description": "Recommended by a friend. I've had their bottles of wine at events before, but need to head to their tasting room still to let you know if I'd recommend.",
    "website": "darbywinery.com",
    "web_link": "https://darbywinery.com/"
  },
  {
    "id": "014",
    "district": [
      {
        "id": "A",
        "name": "Hollywood"
      }
    ],
    "name": "Cascade Cliffs Vineyard and Winery",
    "favorite": false,
    "location": {
      "street": "15029 Redmond - Woodinville Rd NE #300",
      "city": "Woodinville",
      "state": "WA",
      "postcode": "98072"
    },
    "phone": "425-398-9520",
    "logo_path": "https://cascadecliffs.orderport.net/Upload/CascadeCliffs/Images/logo-dark2.png",
    "description": "One of the original wineries in the Columbia River Gorge, Cascade Cliffs has been producing unique, premier wines for over three decades.",
    "website": "cascadecliffs.com",
    "web_link": "https://cascadecliffs.com/"
  },
  {
    "id": "015",
    "district": [
      {
        "id": "A",
        "name": "Hollywood"
      }
    ],
    "name": "Forgeron Cellars",
    "favorite": false,
    "location": {
      "street": "14344 Redmond - Woodinville Rd NE",
      "city": "Woodinville",
      "state": "WA",
      "postcode": "98052"
    },
    "phone": "425-242-8872",
    "logo_path": "https://static.wixstatic.com/media/1dd775_0a99fa919a404f4a995c89dd735bd016~mv2.png/v1/fill/w_2500,h_563,al_c/1dd775_0a99fa919a404f4a995c89dd735bd016~mv2.png",
    "description": "I haven't been her yet, but it was recommended to me by both a friend and a waiter at The Herb Farm who used to work among the wineries.",
    "website": "forgeroncellars.com",
    "web_link": "https://www.forgeroncellars.com/"
  },
  {
    "id": "016",
    "district": [
      {
        "id": "B",
        "name": "Warehouse"
      }
    ],
    "name": "Pondera Winery",
    "favorite": true,
    "location": {
      "street": "19501 144th Ave NE # B400",
      "city": "Woodinville",
      "state": "WA",
      "postcode": "98072"
    },
    "phone": "425-486-8500",
    "logo_path": "https://ponderawinery.com/images/wine%20club%20logo_black%20leaves.png",
    "description": "Recommended by Eater and a waiter at The Herb Farm. Plus it won wine awards. So obviously I had to try it. And I loved it. A laid back family winery.",
    "website": "ponderawinery.com",
    "web_link": "https://www.ponderawinery.com/"
  },
  {
    "id": "017",
    "district": [
      {
        "id": "B",
        "name": "Warehouse"
      }
    ],
    "name": "Long Cellars",
    "favorite": true,
    "location": {
      "street": "19510 144th Ave NE Suite A-6",
      "city": "Woodinville",
      "state": "WA",
      "postcode": "98072"
    },
    "phone": "425-375-3105",
    "logo_path": "https://cdn.cellarpass.com/photos/profiles/7367_thumbnail_crop.jpg",
    "description": "Recommended to me by a waiter at The Herb Farm. Makes good Bordeaux blends in a less-traveled area of the Warehouse District. $10 tasting fee.",
    "website": "longcellars.com",
    "web_link": "https://longcellars.com/"
  },
  {
    "id": "018",
    "district": [
      {
        "id": "B",
        "name": "Warehouse"
      }
    ],
    "name": "Tsillan Cellars",
    "favorite": true,
    "location": {
      "street": "19255 Woodinville Snohomish Rd #3",
      "city": "Woodinville",
      "state": "WA",
      "postcode": "98072"
    },
    "phone": "425-482-5976",
    "logo_path": "https://lakechelanwinevalley.com/wp-content/uploads/2020/10/TsillianCellars350x350-300x300.png",
    "description": "This is a winery out of Lake Chelan that makes Italian varietals. I'm a  big fan of their spot when I visit Lake Chelan, so make sure to  try their Woodinville outpost!",
    "website": "tsillancellars.com",
    "web_link": "https://tsillancellars.com/winery/woodinville/"
  },
  {
    "id": "019",
    "district": [
      {
        "id": "B",
        "name": "Warehouse"
      }
    ],
    "name": "Kerloo Cellars",
    "favorite": true,
    "location": {
      "street": "19501 144th Ave NE E-600",
      "city": "Woodinville",
      "state": "WA",
      "postcode": "98072"
    },
    "phone": "206-349-0641",
    "logo_path": "https://kazzit.com/custom/domain_1/image_files/sitemgr_photo_132762.jpg",
    "description": "Kerloo was our calling to leave behind ordinary lives, our calling to explore life’s journey with family and friends, our calling to pursue our passion for winemaking in Washington State. With each passing year, our passion for winemaking continues to evolve, a continual pursuit to push winemaking and our lives to new levels.",
    "website": "tsillancellars.com",
    "web_link": "https://kerloocellars.com/"
  }
]
